rosbagTimestamp,,,seq,secs,nsecs,frame_id,child_frame_id,,transform,x,y,z,,x,y,z,w
1.60488458318998E+018,,0,,1603863775,205524921,"""map""","""camera_link""",,,3.31572039385,0.0881898895924,0.0312712260405,,-0.00184024934827,0.00193336488229,0.0208571921515,0.99977890193
1.60488458325838E+018,,0,,1604884583,257894754,"""map""","""camera_link_refined""",,,3.31572039385,0.0881898895924,0.0312712260405,,-0.00184024934861,0.00193336488265,0.0208571921554,0.999778902117
1.60488458330863E+018,,0,,1603863775,309135913,"""map""","""camera_link""",,,3.3695884901,0.0910977918642,0.0316360971834,,-0.00185537818563,0.0018898645279,0.0213283213725,0.999769020227
1.60488458338296E+018,,0,,1604884583,382360219,"""map""","""camera_link_refined""",,,3.3695884901,0.0910977918642,0.0316360971834,,-0.00185537818089,0.00188986452306,0.021328321318,0.99976901767
1.60488458341086E+018,,0,,1603863775,412750959,"""map""","""camera_link""",,,3.419466889,0.0938593578806,0.0320171335945,,-0.00300792766436,0.00203169223343,0.0220145231539,0.99975106747
1.60488458343662E+018,,0,,1604884583,436189174,"""map""","""camera_link_refined""",,,3.3695884901,0.0910977918642,0.0316360971834,,-0.00185537818089,0.00188986452306,0.021328321318,0.99976901767
1.60488458350138E+018,,0,,1603863775,516369104,"""map""","""camera_link""",,,3.46889841945,0.0965529885029,0.033372067112,,-0.00319858361322,0.0027535558349,0.0226702445764,0.999734090678
1.6048845835211E+018,,0,,1604884583,520770788,"""map""","""camera_link_refined""",,,3.46889841945,0.0965529885029,0.033372067112,,-0.00319858360513,0.00275355582793,0.0226702445191,0.999734088149
1.60488458362596E+018,,0,,1603863775,619987964,"""map""","""camera_link""",,,3.51745812639,0.0979807474657,0.033571132509,,-0.00309939261038,0.00275883073259,0.0234297474048,0.99971687511
1.60488458364773E+018,,0,,1604884583,647172451,"""map""","""camera_link_refined""",,,3.51745812639,0.0979807474657,0.033571132509,,-0.0030993926091,0.00275883073145,0.0234297473952,0.999716874698
1.60488458372028E+018,,0,,1603863775,723598003,"""map""","""camera_link""",,,3.56557057771,0.102278651188,0.0341755013801,,-0.00289732061914,0.00342123881123,0.0236030818696,0.999711360104
1.60488458377651E+018,,0,,1604884583,768009662,"""map""","""camera_link_refined""",,,3.56557057771,0.102278651188,0.0341755013801,,-0.00289732060706,0.00342123879697,0.0236030817713,0.999711355937
1.60488458383534E+018,,0,,1603863775,827346086,"""map""","""camera_link""",,,3.61530207816,0.105140815403,0.0330538699265,,-0.00412283541015,0.00430933927264,0.0242593719834,0.999687913535
1.60488458385817E+018,,0,,1604884583,857937335,"""map""","""camera_link_refined""",,,3.56557057771,0.102278651188,0.0341755013801,,-0.00289732060706,0.00342123879697,0.0236030817713,0.999711355937
1.60488458394967E+018,,0,,1603863775,930955886,"""map""","""camera_link""",,,3.66080414418,0.106339235078,0.0338314237279,,-0.00488985678871,0.00645369495429,0.025209146348,0.999649411078
1.60488458400495E+018,,0,,1604884584,4508495,"""map""","""camera_link_refined""",,,3.66080414418,0.106339235078,0.0338314237279,,-0.00488985677158,0.00645369493168,0.0252091462597,0.999649407576
1.60488458402868E+018,,0,,1603863776,34694910,"""map""","""camera_link""",,,3.70747394542,0.109561343891,0.0338838522772,,-0.00648199614841,0.00720829301891,0.0259771894503,0.999615535739
1.60488458406897E+018,,0,,1604884584,58310031,"""map""","""camera_link_refined""",,,3.70747394542,0.109561343891,0.0338838522772,,-0.00648199611786,0.00720829298494,0.0259771893278,0.999615531028
1.60488458412297E+018,,0,,1603863776,138313055,"""map""","""camera_link""",,,3.75610451289,0.112578812732,0.0339722504346,,-0.00793775164103,0.00488646392184,0.0267582518914,0.999598482109
1.60488458415457E+018,,0,,1604884584,153714656,"""map""","""camera_link_refined""",,,3.75610451289,0.112578812732,0.0339722504346,,-0.00793775158186,0.00488646388541,0.0267582516919,0.999598474657
1.60488458424461E+018,,0,,1603863776,242050886,"""map""","""camera_link""",,,3.79883548105,0.115502798071,0.0345663105546,,-0.00790308633324,0.00137482997347,0.0272824187877,0.999595582665
1.60488458427597E+018,,0,,1604884584,270491361,"""map""","""camera_link_refined""",,,3.75610451289,0.112578812732,0.0339722504346,,-0.00793775158186,0.00488646388541,0.0267582516919,0.999598474657
1.60488458434109E+018,,0,,1603863776,345671892,"""map""","""camera_link""",,,3.84048972411,0.118729850267,0.0344204590054,,-0.00764474185181,-0.00175315077233,0.028030122349,0.999576314936
1.60488458437927E+018,,0,,1604884584,379011154,"""map""","""camera_link_refined""",,,3.79883548105,0.115502798071,0.0345663105546,,-0.00790308630088,0.00137482996784,0.027282418676,0.999595578572
1.60488458443975E+018,,0,,1603863776,449304103,"""map""","""camera_link""",,,3.88132722778,0.121089039343,0.0366074199765,,-0.00803163895846,-0.00170615372697,0.0282085562748,0.99956833195
1.6048845844819E+018,,0,,1604884584,478076934,"""map""","""camera_link_refined""",,,3.88132722778,0.121089039343,0.0366074199765,,-0.00803163899433,-0.00170615373459,0.0282085564008,0.999568336413
1.60488458453148E+018,,0,,1603863776,553049087,"""map""","""camera_link""",,,3.92105359489,0.123370406459,0.0366111464399,,-0.00928086783782,-0.000260023132354,0.0287501250371,0.999543517948
1.60488458455592E+018,,0,,1604884584,555294752,"""map""","""camera_link_refined""",,,3.92105359489,0.123370406459,0.0366111464399,,-0.0092808677632,-0.000260023130264,0.0287501248059,0.999543509911
1.60488458463874E+018,,0,,1603863776,656640052,"""map""","""camera_link""",,,3.96022145649,0.126660968689,0.0372604264908,,-0.00926870000367,0.000824894922522,0.0291761742279,0.999530972816
1.60488458468504E+018,,0,,1604884584,683951854,"""map""","""camera_link_refined""",,,3.96022145649,0.126660968689,0.0372604264908,,-0.00926869998508,0.000824894920868,0.0291761741694,0.999530970811
1.60488458475668E+018,,0,,1603863776,760376930,"""map""","""camera_link""",,,3.99704730181,0.129433235315,0.0378749478602,,-0.00795633394524,-0.000824571271551,0.0294085178631,0.999535467614
1.60488458480689E+018,,0,,1604884584,806501388,"""map""","""camera_link_refined""",,,3.99704730181,0.129433235315,0.0378749478602,,-0.0079563339647,-0.000824571273567,0.029408517935,0.999535470058
1.6048845848589E+018,,0,,1603863776,863996982,"""map""","""camera_link""",,,4.03352754719,0.130879243607,0.0383618749451,,-0.00409133359751,-0.003345930368,0.0295360037137,0.999549742005
1.60488458488358E+018,,0,,1604884584,874697923,"""map""","""camera_link_refined""",,,4.03352754719,0.130879243607,0.0383618749451,,-0.00409133360463,-0.00334593037382,0.0295360037651,0.999549743745
1.60488458497353E+018,,0,,1603863776,967604875,"""map""","""camera_link""",,,4.06953894765,0.132816293578,0.0388158785339,,-0.00223461786336,-0.00580326397791,0.0289219290809,0.999562324171
1.60488458505403E+018,,0,,1604884585,48454284,"""map""","""camera_link_refined""",,,4.06953894765,0.132816293578,0.0388158785339,,-0.00223461787535,-0.00580326400904,0.028921929236,0.999562329532
1.60488458506862E+018,,0,,1603863777,71363925,"""map""","""camera_link""",,,4.10372158519,0.134882413282,0.0398862868732,,-0.00331091569443,-0.00577685523085,0.0273891706092,0.999602671009
1.60488458509407E+018,,0,,1604884585,92097759,"""map""","""camera_link_refined""",,,4.10372158519,0.134882413282,0.0398862868732,,-0.00331091569315,-0.00577685522862,0.0273891705986,0.999602670622
1.60488458516418E+018,,0,,1603863777,175091981,"""map""","""camera_link""",,,4.1379464221,0.136668681405,0.040948074479,,-0.00582398190359,-0.00428385195411,0.025266820339,0.999654598488
1.60488458523598E+018,,0,,1604884585,235550642,"""map""","""camera_link_refined""",,,4.1379464221,0.136668681405,0.040948074479,,-0.00582398190755,-0.00428385195703,0.0252668203562,0.999654599167
1.60488458528743E+018,,0,,1603863777,278713941,"""map""","""camera_link""",,,4.17040771643,0.138261211493,0.042234404671,,-0.00499233101761,-0.00243561621582,0.0228199164671,0.999724163815
1.60488458533653E+018,,0,,1604884585,336267471,"""map""","""camera_link_refined""",,,4.17040771643,0.138261211493,0.042234404671,,-0.0049923309979,-0.0024356162062,0.022819916377,0.999724159867
1.60488458537432E+018,,0,,1603863777,382448911,"""map""","""camera_link""",,,4.20278695751,0.138219178571,0.0429630910553,,-0.00298650825882,-0.000243382264689,0.0201962789505,0.999791548282
1.60488458540811E+018,,0,,1604884585,407668113,"""map""","""camera_link_refined""",,,4.20278695751,0.138219178571,0.0429630910553,,-0.00298650824663,-0.000243382263695,0.0201962788681,0.9997915442
1.60488458548138E+018,,0,,1603863777,486187934,"""map""","""camera_link""",,,4.23338176075,0.13956486875,0.0442815366981,,-0.000244997242967,0.00200163382261,0.0160426262411,0.99986927847
1.60488458552188E+018,,0,,1604884585,521264553,"""map""","""camera_link_refined""",,,4.20278695751,0.138219178571,0.0429630910553,,-0.00298650824663,-0.000243382263695,0.0201962788681,0.9997915442
1.60488458558719E+018,,0,,1603863777,589951038,"""map""","""camera_link""",,,4.26402819728,0.140676098293,0.0443449049006,,-0.00218020955896,0.00157377218414,0.0104151163304,0.999942144568
1.60488458560514E+018,,0,,1604884585,603438377,"""map""","""camera_link_refined""",,,4.26402819728,0.140676098293,0.0443449049006,,-0.002180209562,0.00157377218634,0.0104151163449,0.999942145966
1.60488458568663E+018,,0,,1603863777,693789005,"""map""","""camera_link""",,,4.29361834326,0.140660871559,0.0451358586116,,-0.00473693399861,0.00155886346229,0.00293745338368,0.999983258405
1.60488458572914E+018,,0,,1604884585,728612184,"""map""","""camera_link_refined""",,,4.29361834326,0.140660871559,0.0451358586116,,-0.00473693396469,0.00155886345112,0.00293745336264,0.999983251244
1.60488458584051E+018,,0,,1603863777,797544002,"""map""","""camera_link""",,,4.32551585081,0.139497635398,0.0452025244783,,-0.00737337378299,0.00163146974029,-0.00582421190514,0.999954520622
1.60488458588101E+018,,0,,1604884585,880615234,"""map""","""camera_link_refined""",,,4.32551585081,0.139497635398,0.0452025244783,,-0.00737337380846,0.00163146974593,-0.00582421192526,0.999954524076
1.6048845859902E+018,,0,,1603863777,901431083,"""map""","""camera_link""",,,4.35388206273,0.138099213769,0.0460032117696,,-0.00649421477759,0.00214593873761,-0.0170772718246,0.999830775546
1.60488458602882E+018,,0,,1604884586,28373479,"""map""","""camera_link_refined""",,,4.35388206273,0.138099213769,0.0460032117696,,-0.00649421480091,0.00214593874531,-0.0170772718859,0.999830779135
1.60488458607361E+018,,0,,1603863778,5260944,"""map""","""camera_link""",,,4.38113984443,0.134912377152,0.0460290062871,,-0.00488210206592,0.00255831962508,-0.0302250363841,0.999527924094
1.60488458610585E+018,,0,,1604884586,105179548,"""map""","""camera_link_refined""",,,4.38113984443,0.134912377152,0.0460290062871,,-0.00488210205668,0.00255831962024,-0.0302250363268,0.999527922201
1.60488458613996E+018,,0,,1603863778,109132051,"""map""","""camera_link""",,,4.40866958372,0.131062118557,0.0466037928179,,-0.00447098374992,0.00344709868714,-0.0449771382793,0.998972073873
1.60488458616508E+018,,0,,1604884586,164842605,"""map""","""camera_link_refined""",,,4.40866958372,0.131062118557,0.0466037928179,,-0.00447098370626,0.00344709865348,-0.0449771378401,0.998972064118
1.6048845862422E+018,,0,,1603863778,213032007,"""map""","""camera_link""",,,4.43513753782,0.126630545171,0.0467806489251,,-0.00425294236756,0.00413411484668,-0.06166686535,0.998079168764
1.60488458628268E+018,,0,,1604884586,281660556,"""map""","""camera_link_refined""",,,4.43513753782,0.126630545171,0.0467806489251,,-0.00425294235092,0.00413411483051,-0.0616668651087,0.998079164858
1.60488458636256E+018,,0,,1603863778,316861867,"""map""","""camera_link""",,,4.4615256079,0.121927011689,0.0465464981883,,-0.00414790215048,0.00424176139347,-0.0804684520975,0.996739503567
1.60488458644428E+018,,0,,1604884586,443849563,"""map""","""camera_link_refined""",,,4.4615256079,0.121927011689,0.0465464981883,,-0.00414790213516,0.00424176137781,-0.0804684518003,0.996739499886
1.60488458648445E+018,,0,,1603863778,420871973,"""map""","""camera_link""",,,4.48312912009,0.116761258974,0.048171841759,,-0.00365039164535,0.00487496503437,-0.100903054683,0.994877622629
1.60488458652508E+018,,0,,1604884586,524686813,"""map""","""camera_link_refined""",,,4.4615256079,0.121927011689,0.0465464981883,,-0.00414790213516,0.00424176137781,-0.0804684518003,0.996739499886
1.60488458657481E+018,,0,,1603863778,524842023,"""map""","""camera_link""",,,4.50768254789,0.108966975619,0.04794812561,,-0.00376036107378,0.00467257763066,-0.123811847967,0.9922875857
1.60488458661336E+018,,0,,1604884586,612715482,"""map""","""camera_link_refined""",,,4.50768254789,0.108966975619,0.04794812561,,-0.0037603610743,0.00467257763129,-0.123811847984,0.992287585835
1.60488458664577E+018,,0,,1603863778,628832101,"""map""","""camera_link""",,,4.53066561897,0.0996793009765,0.0488387318437,,-0.00464300071468,0.00425054898293,-0.148297180642,0.988922808034
1.60488458669991E+018,,0,,1604884586,692104339,"""map""","""camera_link_refined""",,,4.53066561897,0.0996793009765,0.0488387318437,,-0.00464300071779,0.00425054898577,-0.148297180742,0.988922808697
1.60488458673944E+018,,0,,1603863778,732821941,"""map""","""camera_link""",,,4.55214818476,0.0901346918471,0.0495466012155,,-0.00506204971224,0.00325516208422,-0.175650118804,0.984434262263
1.60488458677494E+018,,0,,1604884586,774655580,"""map""","""camera_link_refined""",,,4.55214818476,0.0901346918471,0.0495466012155,,-0.00506204970875,0.00325516208197,-0.175650118683,0.984434261583
1.60488458681996E+018,,0,,1603863778,836812019,"""map""","""camera_link""",,,4.57594132978,0.0775957765143,0.0491047816806,,-0.00555839423218,0.00198917924366,-0.204638615852,0.978819801733
1.60488458685842E+018,,0,,1604884586,854483366,"""map""","""camera_link_refined""",,,4.57594132978,0.0775957765143,0.0491047816806,,-0.00555839417675,0.00198917922382,-0.204638613812,0.978819791973
1.6048845869365E+018,,0,,1603863778,940952062,"""map""","""camera_link""",,,4.59629476373,0.0656157461827,0.0494270945705,,-0.0060632673368,0.00153477247049,-0.235358518191,0.971888488112
1.60488458701717E+018,,0,,1604884587,16736507,"""map""","""camera_link_refined""",,,4.57594132978,0.0775957765143,0.0491047816806,,-0.00555839417675,0.00198917922382,-0.204638613812,0.978819791973
1.60488458705069E+018,,0,,1603863779,44921875,"""map""","""camera_link""",,,4.61501407331,0.0516268143572,0.0497532551657,,-0.0060258203391,0.000690292158531,-0.266483475061,0.963820405113
1.60488458708314E+018,,0,,1604884587,77278137,"""map""","""camera_link_refined""",,,4.61501407331,0.0516268143572,0.0497532551657,,-0.00602582033064,0.000690292157562,-0.266483474687,0.96382040376
1.60488458715021E+018,,0,,1603863779,148792028,"""map""","""camera_link""",,,4.63297168062,0.0368350919762,0.0495359658125,,-0.00550386315636,-0.000871405298704,-0.298589789924,0.954365275083
1.60488458722939E+018,,0,,1604884587,228916406,"""map""","""camera_link_refined""",,,4.63297168062,0.0368350919762,0.0495359658125,,-0.00550386317621,-0.000871405301847,-0.298589791,0.954365278525
1.60488458727947E+018,,0,,1603863779,252772092,"""map""","""camera_link""",,,4.64872685104,0.019914582711,0.0500616639985,,-0.00557784760557,-0.00133900071945,-0.329439226918,0.94415935613
1.604884587341E+018,,0,,1604884587,334448814,"""map""","""camera_link_refined""",,,4.63297168062,0.0368350919762,0.0495359658125,,-0.00550386317621,-0.000871405301847,-0.298589791,0.954365278525
1.60488458736688E+018,,0,,1603863779,356512069,"""map""","""camera_link""",,,4.66413515497,0.00245429085084,0.049556351203,,-0.00403158017574,-0.00219221403526,-0.359685658135,0.93306224649
1.60488458739748E+018,,0,,1604884587,397027730,"""map""","""camera_link_refined""",,,4.64872685104,0.019914582711,0.0500616639985,,-0.0055778476075,-0.00133900071991,-0.329439227033,0.944159356457
1.60488458745764E+018,,0,,1603863779,460381984,"""map""","""camera_link""",,,4.67828541223,-0.0150300935735,0.0504790352719,,-0.00493704130961,-0.000245440204462,-0.389745229468,0.920909456772
1.60488458750007E+018,,0,,1604884587,492660284,"""map""","""camera_link_refined""",,,4.67828541223,-0.0150300935735,0.0504790352719,,-0.00493704129459,-0.000245440203716,-0.389745228283,0.920909453971
1.60488458755755E+018,,0,,1603863779,564121961,"""map""","""camera_link""",,,4.6908426546,-0.0349963302414,0.0505805403291,,-0.00443444041531,-0.000388998770365,-0.41820395651,0.908342248249
1.60488458758125E+018,,0,,1604884587,580727577,"""map""","""camera_link_refined""",,,4.6908426546,-0.0349963302414,0.0505805403291,,-0.00443444040472,-0.000388998769437,-0.418203955511,0.90834224608
1.60488458764425E+018,,0,,1603863779,667732000,"""map""","""camera_link""",,,4.70258787464,-0.0544170558034,0.0509832945092,,-0.00310625626733,-0.00165924073579,-0.446342968972,0.894855049199
1.60488458768376E+018,,0,,1604884587,682898521,"""map""","""camera_link_refined""",,,4.6908426546,-0.0349963302414,0.0505805403291,,-0.00443444040472,-0.000388998769437,-0.418203955511,0.90834224608
1.60488458775194E+018,,0,,1603863779,771471977,"""map""","""camera_link""",,,4.71249093809,-0.0752961664127,0.0513292519931,,-0.00117689038829,-0.00336820244666,-0.472193400927,0.881487763911
1.60488458777671E+018,,0,,1604884587,776342630,"""map""","""camera_link_refined""",,,4.70258787464,-0.0544170558034,0.0509832945092,,-0.00310625625655,-0.00165924073004,-0.446342967424,0.894855046096
1.60488458786736E+018,,0,,1603863779,874972105,"""map""","""camera_link""",,,4.72130450018,-0.0960680173814,0.0522024606626,,-0.00195929788298,-0.00312273808436,-0.496428698069,0.868069672576
1.60488458789588E+018,,0,,1604884587,895524501,"""map""","""camera_link_refined""",,,4.72130450018,-0.0960680173814,0.0522024606626,,-0.00195929788391,-0.00312273808584,-0.496428698304,0.868069672987
1.60488458795742E+018,,0,,1603863779,978581905,"""map""","""camera_link""",,,4.72958001736,-0.117045484171,0.0528036614119,,-0.00420664473277,-0.00233830608574,-0.519727517412,0.854318533554
1.60488458800252E+018,,0,,1604884588,2003908,"""map""","""camera_link_refined""",,,4.72130450018,-0.0960680173814,0.0522024606626,,-0.00195929788391,-0.00312273808584,-0.496428698304,0.868069672987
1.60488458808103E+018,,0,,1603863780,82201957,"""map""","""camera_link""",,,4.73775133763,-0.138942844218,0.0535159598183,,-0.00475569982652,-0.00289909188926,-0.541709994517,0.840547001067
1.60488458810469E+018,,0,,1604884588,102606773,"""map""","""camera_link_refined""",,,4.72958001736,-0.117045484171,0.0528036614119,,-0.00420664470613,-0.00233830607094,-0.519727514121,0.854318528145
1.60488458816454E+018,,0,,1603863780,185811996,"""map""","""camera_link""",,,4.74326173654,-0.160512857481,0.0534906042407,,-0.00257333476176,-0.00514505135919,-0.561031888804,0.827774207474
1.60488458822235E+018,,0,,1604884588,221911907,"""map""","""camera_link_refined""",,,4.74326173654,-0.160512857481,0.0534906042407,,-0.00257333474578,-0.00514505132724,-0.56103188532,0.827774202334
1.60488458829735E+018,,0,,1603863780,289301872,"""map""","""camera_link""",,,4.747949393,-0.182763808296,0.0540258447993,,0.00458456916263,-0.00842252565934,-0.578636568971,0.815529133106
1.60488458838284E+018,,0,,1603863780,392802000,"""map""","""camera_link""",,,4.75259800172,-0.20579295859,0.0539157206674,,0.00655527104288,-0.00865597932388,-0.593701960035,0.804611758028
1.60488458840191E+018,,0,,1604884588,401295900,"""map""","""camera_link_refined""",,,4.747949393,-0.182763808296,0.0540258447993,,0.0045845691555,-0.00842252564625,-0.578636568072,0.815529131839
1.60488458845587E+018,,0,,1604884588,450330257,"""map""","""camera_link_refined""",,,4.75259800172,-0.20579295859,0.0539157206674,,0.00655527105578,-0.00865597934092,-0.593701961203,0.804611759612
1.60488458849062E+018,,0,,1603863780,496311902,"""map""","""camera_link""",,,4.75683805879,-0.228017074604,0.0544911853811,,0.00475829735433,-0.00888958990133,-0.607484402483,0.794267614806
1.60488458855132E+018,,0,,1604884588,524381875,"""map""","""camera_link_refined""",,,4.75683805879,-0.228017074604,0.0544911853811,,0.00475829733198,-0.00888958985958,-0.60748439963,0.794267611076
1.60488458859192E+018,,0,,1603863780,599871873,"""map""","""camera_link""",,,4.76198975037,-0.251031700939,0.0553297647137,,-0.000732657096555,-0.00733697256632,-0.620089874324,0.784496131887
1.60488458867415E+018,,0,,1604884588,667836904,"""map""","""camera_link_refined""",,,4.76198975037,-0.251031700939,0.0553297647137,,-0.000732657096138,-0.00733697256215,-0.620089873971,0.784496131441
1.60488458869119E+018,,0,,1603863780,703272104,"""map""","""camera_link""",,,4.76661055595,-0.274352705529,0.0562232987446,,-0.00333992187008,-0.00716618289918,-0.63180304111,0.775088635787
1.60488458877775E+018,,0,,1604884588,765711069,"""map""","""camera_link_refined""",,,4.76198975037,-0.251031700939,0.0553297647137,,-0.000732657096138,-0.00733697256215,-0.620089873971,0.784496131441
1.60488458880977E+018,,0,,1603863780,806891918,"""map""","""camera_link""",,,4.76988566605,-0.299325922375,0.0573623979807,,-0.00335829033713,-0.00795152544309,-0.642042567297,0.766620412218
1.60488458888906E+018,,0,,1604884588,888791322,"""map""","""camera_link_refined""",,,4.76661055595,-0.274352705529,0.0562232987446,,-0.00333992189457,-0.00716618295172,-0.631803045742,0.775088641469
1.60488458892102E+018,,0,,1603863780,910261869,"""map""","""camera_link""",,,4.77216546421,-0.323991704245,0.0579108169979,,-0.0018412273017,-0.0112463693482,-0.651280230456,0.758751722225
1.60488458895954E+018,,0,,1604884588,959287405,"""map""","""camera_link_refined""",,,4.77216546421,-0.323991704245,0.0579108169979,,-0.00184122731505,-0.0112463694297,-0.651280235177,0.758751727724
1.60488458903304E+018,,0,,1603863781,13871908,"""map""","""camera_link""",,,4.77417356077,-0.349651477237,0.0582154104369,,-0.00159921330219,-0.0160416629654,-0.659140647994,0.75184687322
1.60488458906844E+018,,0,,1604884589,68175315,"""map""","""camera_link_refined""",,,4.77417356077,-0.349651477237,0.0582154104369,,-0.00159921329655,-0.0160416629089,-0.659140645673,0.751846870572
1.60488458912316E+018,,0,,1603863781,117402076,"""map""","""camera_link""",,,4.77596054102,-0.37572354988,0.0581688146403,,-0.00314007466551,-0.0192081332604,-0.666621364354,0.745142371326
1.60488458917799E+018,,0,,1604884589,165098428,"""map""","""camera_link_refined""",,,4.77596054102,-0.37572354988,0.0581688146403,,-0.00314007465074,-0.01920813317,-0.666621361217,0.74514236782
1.60488458920403E+018,,0,,1603863781,220972061,"""map""","""camera_link""",,,4.77784170642,-0.40303067874,0.0593435769106,,-0.0042557907026,-0.0180128525982,-0.672888542544,0.739512290139
1.604884589259E+018,,0,,1604884589,253157377,"""map""","""camera_link_refined""",,,4.77784170642,-0.40303067874,0.0593435769106,,-0.00425579071842,-0.0180128526651,-0.672888545045,0.739512292888
1.60488458935516E+018,,0,,1603863781,324552059,"""map""","""camera_link""",,,4.77974987606,-0.4317286946,0.060802123804,,-0.00336948657773,-0.0152699914963,-0.678786112088,0.734169526726
1.60488458940921E+018,,0,,1604884589,408576011,"""map""","""camera_link_refined""",,,4.77974987606,-0.4317286946,0.060802123804,,-0.00336948656759,-0.0152699914504,-0.678786110046,0.734169524517
1.60488458941371E+018,,0,,1603863781,428081989,"""map""","""camera_link""",,,4.77993827818,-0.460623422458,0.061741667117,,-0.00209505518512,-0.01477790974,-0.683301157583,0.729984079307
1.6048845894815E+018,,0,,1604884589,479653358,"""map""","""camera_link_refined""",,,4.77974987606,-0.4317286946,0.060802123804,,-0.00336948656759,-0.0152699914504,-0.678786110046,0.734169524517
1.6048845895595E+018,,0,,1603863781,531702041,"""map""","""camera_link""",,,4.78124744292,-0.490589804432,0.0621162152874,,-0.000860385709785,-0.0147955223972,-0.688535583863,0.725051104532
1.60488458959772E+018,,0,,1604884589,587233304,"""map""","""camera_link_refined""",,,4.78124744292,-0.490589804432,0.0621162152874,,-0.00086038570885,-0.0147955223811,-0.688535583114,0.725051103743
1.60488458964139E+018,,0,,1603863781,635312080,"""map""","""camera_link""",,,4.78255542943,-0.521907070853,0.0637159038281,,0.000738131358951,-0.0152407710191,-0.6930650862,0.720713497749
1.60488458966216E+018,,0,,1604884589,660702705,"""map""","""camera_link_refined""",,,4.78255542943,-0.521907070853,0.0637159038281,,0.000738131364307,-0.0152407711297,-0.69306509123,0.720713502979
1.6048845897603E+018,,0,,1603863781,738921880,"""map""","""camera_link""",,,4.78227159315,-0.553351771822,0.0639989303359,,0.00140360077466,-0.0169294180633,-0.696530216879,0.717326333154
1.60488458980527E+018,,0,,1604884589,803532123,"""map""","""camera_link_refined""",,,4.78227159315,-0.553351771822,0.0639989303359,,0.0014036007841,-0.0169294181771,-0.696530221562,0.717326337977
1.60488458984636E+018,,0,,1603863781,842541933,"""map""","""camera_link""",,,4.7825681753,-0.586726419137,0.0651076189099,,0.0018145954404,-0.0176688417567,-0.699395690422,0.714513952754
1.60488458990396E+018,,0,,1604884589,903500795,"""map""","""camera_link_refined""",,,4.7825681753,-0.586726419137,0.0651076189099,,0.00181459543932,-0.0176688417462,-0.699395690007,0.71451395233
1.60488458992628E+018,,0,,1603863781,946151971,"""map""","""camera_link""",,,4.78287585238,-0.620817181424,0.0664108590181,,0.00253184341618,-0.0182176942318,-0.701473851311,0.712457828734
1.60488458997672E+018,,0,,1604884589,970313549,"""map""","""camera_link_refined""",,,4.7825681753,-0.586726419137,0.0651076189099,,0.00181459543932,-0.0176688417462,-0.699395690007,0.71451395233
1.60488459007541E+018,,0,,1603863782,49871921,"""map""","""camera_link""",,,4.78272106312,-0.656233330952,0.0676274355788,,0.00283163822682,-0.0189320296088,-0.703278652949,0.710656528115
1.60488459018332E+018,,0,,1603863782,153501987,"""map""","""camera_link""",,,4.78378100394,-0.695910327453,0.0686291356491,,0.00245806292929,-0.0191586729767,-0.705774566391,0.708173119633
1.60488459018597E+018,,0,,1604884590,164839029,"""map""","""camera_link_refined""",,,4.78272106312,-0.656233330952,0.0676274355788,,0.00283163822036,-0.0189320295656,-0.703278651343,0.710656526493
1.60488459021581E+018,,0,,1604884590,214463233,"""map""","""camera_link_refined""",,,4.78378100394,-0.695910327453,0.0686291356491,,0.0024580629259,-0.0191586729503,-0.705774565418,0.708173118656
1.60488459024803E+018,,0,,1603863782,257122039,"""map""","""camera_link""",,,4.78342841567,-0.732837787934,0.0699206367614,,0.0033109144363,-0.0199957408492,-0.707288309334,0.70663458208
1.60488459029305E+018,,0,,1604884590,292638778,"""map""","""camera_link_refined""",,,4.78378100394,-0.695910327453,0.0686291356491,,0.0024580629259,-0.0191586729503,-0.705774565418,0.708173118656
1.60488459038497E+018,,0,,1603863782,360742092,"""map""","""camera_link""",,,4.78457255592,-0.773469619014,0.0709370502482,,0.00376478311599,-0.0204704018596,-0.708930130708,0.704971529721
1.604884590436E+018,,0,,1604884590,432552814,"""map""","""camera_link_refined""",,,4.78457255592,-0.773469619014,0.0709370502482,,-0.00376478311809,0.020470401871,0.708930131103,-0.704971530113
1.60488459044897E+018,,0,,1603863782,464472055,"""map""","""camera_link""",,,4.78466934814,-0.814054223042,0.0718790249692,,0.00440205532758,-0.0208439748324,-0.710140930025,0.703737166933
1.60488459052085E+018,,0,,1604884590,519898891,"""map""","""camera_link_refined""",,,4.78466934814,-0.814054223042,0.0718790249692,,-0.0044020553496,0.0208439749366,0.710140933577,-0.703737170453
1.60488459057593E+018,,0,,1603863782,568091869,"""map""","""camera_link""",,,4.78414399304,-0.854975108451,0.0731909522452,,0.00474709621257,-0.020780809231,-0.710890905559,0.702979206163
1.60488459059641E+018,,0,,1604884590,596072196,"""map""","""camera_link_refined""",,,4.78414399304,-0.854975108451,0.0731909522452,,-0.00474709616306,0.0207808090143,0.710890898145,-0.702979198831
1.60488459067014E+018,,0,,1603863782,671881914,"""map""","""camera_link""",,,4.7818393302,-0.894735167471,0.0745600811368,,0.0066879171577,-0.022507446149,-0.710844253212,0.702957423427
1.60488459070223E+018,,0,,1604884590,699233531,"""map""","""camera_link_refined""",,,4.78414399304,-0.854975108451,0.0731909522452,,-0.00474709616306,0.0207808090143,0.710890898145,-0.702979198831
1.60488459078565E+018,,0,,1603863782,775461912,"""map""","""camera_link""",,,4.7813216873,-0.939084441784,0.0759061101436,,0.0078398009666,-0.0235513692795,-0.710454361801,0.703305384227
1.60488459082859E+018,,0,,1604884590,823719501,"""map""","""camera_link_refined""",,,4.7813216873,-0.939084441784,0.0759061101436,,-0.00783980099342,0.0235513693601,0.710454364231,-0.703305386633
1.60488459087969E+018,,0,,1603863782,879061937,"""map""","""camera_link""",,,4.78065219897,-0.98399907004,0.0765140202739,,0.00835293219814,-0.024381241828,-0.709455016,0.704279306661
1.60488459091198E+018,,0,,1604884590,911654949,"""map""","""camera_link_refined""",,,4.78065219897,-0.98399907004,0.0765140202739,,-0.00835293229024,0.0243812420968,0.709455023823,-0.704279314426
1.60488459098638E+018,,0,,1603863782,982681989,"""map""","""camera_link""",,,4.78180121863,-1.02954589353,0.0782157554773,,0.00921325238946,-0.0252929691375,-0.708461822335,0.705235591969
1.60488459106398E+018,,0,,1604884591,43485641,"""map""","""camera_link_refined""",,,4.78180121863,-1.02954589353,0.0782157554773,,-0.00921325233329,0.0252929689833,0.708461818016,-0.705235587669
1.60488459109413E+018,,0,,1603863783,86302042,"""map""","""camera_link""",,,4.78052799671,-1.07388192795,0.0798269095398,,0.0100461731744,-0.0254739423302,-0.706844179926,0.706839075673
1.60488459115874E+018,,0,,1604884591,158334016,"""map""","""camera_link_refined""",,,4.78052799671,-1.07388192795,0.0798269095398,,-0.0100461730693,0.0254739420636,0.70684417253,-0.706839068277
1.60488459117656E+018,,0,,1603863783,190042018,"""map""","""camera_link""",,,4.78191077641,-1.12121535017,0.0813667579434,,0.0110767095037,-0.0255337904542,-0.705571413693,0.708092016729
1.6048845912316E+018,,0,,1604884591,224831819,"""map""","""camera_link_refined""",,,4.78191077641,-1.12121535017,0.0813667579434,,0.0110767095484,-0.0255337905573,-0.705571416542,0.708092019588
1.60488459129182E+018,,0,,1603863783,293652057,"""map""","""camera_link""",,,4.78193517743,-1.16904445213,0.0819334732168,,0.0113733278314,-0.0249300135589,-0.70406861441,0.709603086298
1.60488459134902E+018,,0,,1604884591,329091310,"""map""","""camera_link_refined""",,,4.78191077641,-1.12121535017,0.0813667579434,,0.0110767095484,-0.0255337905573,-0.705571416542,0.708092019588
1.60488459138574E+018,,0,,1603863783,397281885,"""map""","""camera_link""",,,4.78144798092,-1.21702258742,0.0828326321321,,0.0109570769919,-0.0232897837109,-0.702548893149,0.711169860865
1.60488459143964E+018,,0,,1604884591,437782287,"""map""","""camera_link_refined""",,,4.78144798092,-1.21702258742,0.0828326321321,,0.0109570770477,-0.0232897838293,-0.702548896722,0.711169864482
1.60488459148497E+018,,0,,1603863783,501012086,"""map""","""camera_link""",,,4.78273569262,-1.26720621529,0.0844251402921,,0.0111377774696,-0.0226710889248,-0.701064713846,0.712650139627
1.60488459153223E+018,,0,,1604884591,531900405,"""map""","""camera_link_refined""",,,4.78273569262,-1.26720621529,0.0844251402921,,0.011137777565,-0.022671089119,-0.70106471985,0.712650145731
1.60488459160741E+018,,0,,1603863783,604752063,"""map""","""camera_link""",,,4.78526208215,-1.31707357756,0.0851196032029,,0.00958374897419,-0.0219944298892,-0.69974344229,0.713991246031
1.60488459166209E+018,,0,,1604884591,661411762,"""map""","""camera_link_refined""",,,4.78526208215,-1.31707357756,0.0851196032029,,0.00958374903348,-0.0219944300253,-0.699743446619,0.713991250448
1.60488459170957E+018,,0,,1603863783,708371877,"""map""","""camera_link""",,,4.78737904548,-1.3684341974,0.0876637276907,,0.00771625901421,-0.0225317029232,-0.698667664801,0.715049839017
1.60488459176334E+018,,0,,1604884591,763108015,"""map""","""camera_link_refined""",,,4.78737904548,-1.3684341974,0.0876637276907,,0.00771625902807,-0.0225317029637,-0.698667666057,0.715049840301
1.60488459179282E+018,,0,,1603863783,812102079,"""map""","""camera_link""",,,4.78890167994,-1.41829444428,0.0891469620011,,0.00402667729734,-0.0223848975274,-0.698067514887,0.715670630156
1.60488459184642E+018,,0,,1604884591,845418453,"""map""","""camera_link_refined""",,,4.78737904548,-1.3684341974,0.0876637276907,,0.00771625902807,-0.0225317029637,-0.698667666057,0.715049840301
1.60488459189675E+018,,0,,1603863783,915842056,"""map""","""camera_link""",,,4.7895159847,-1.47541868934,0.0911598460119,,0.00213366798371,-0.0224741635205,-0.697967378667,0.715773626473
1.6048845919354E+018,,0,,1604884591,932961225,"""map""","""camera_link_refined""",,,4.7895159847,-1.47541868934,0.0911598460119,,0.002133667998,-0.0224741636711,-0.697967383343,0.715773631268
1.6048845920195E+018,,0,,1603863784,19592046,"""map""","""camera_link""",,,4.79133012164,-1.52708040012,0.0935373966204,,0.0012838546012,-0.020922212792,-0.698065884156,0.71572664983
1.60488459210029E+018,,0,,1604884592,98183631,"""map""","""camera_link_refined""",,,4.79133012164,-1.52708040012,0.0935373966204,,0.00128385459916,-0.0209222127588,-0.69806588305,0.715726648695
1.60488459211945E+018,,0,,1603863784,123221874,"""map""","""camera_link""",,,4.79323523427,-1.57845533283,0.0954702635286,,0.00104487580953,-0.0194392785856,-0.69804877409,0.715785520757
1.60488459214908E+018,,0,,1604884592,148620843,"""map""","""camera_link_refined""",,,4.79133012164,-1.52708040012,0.0935373966204,,0.00128385459916,-0.0209222127588,-0.69806588305,0.715726648695
1.60488459222014E+018,,0,,1603863784,226942062,"""map""","""camera_link""",,,4.79474485989,-1.63047396427,0.0976767140362,,0.00189730602139,-0.0192696878297,-0.698107204142,0.715731374243
1.60488459229333E+018,,0,,1604884592,292716503,"""map""","""camera_link_refined""",,,4.79474485989,-1.63047396427,0.0976767140362,,0.00189730603164,-0.0192696879338,-0.698107207915,0.715731378112
1.60488459231215E+018,,0,,1603863784,330651998,"""map""","""camera_link""",,,4.79747227713,-1.6801484129,0.099623292516,,0.00124869286824,-0.0178445378553,-0.698178537329,0.715700165149
1.6048845923535E+018,,0,,1604884592,353093385,"""map""","""camera_link_refined""",,,4.79747227713,-1.6801484129,0.099623292516,,0.00124869287876,-0.0178445380057,-0.698178543212,0.71570017118
1.60488459242529E+018,,0,,1603863784,434292078,"""map""","""camera_link""",,,4.79924520874,-1.73127054854,0.100816345746,,0.00044454421404,-0.0176203341317,-0.698147836354,0.715736632446
1.60488459245525E+018,,0,,1604884592,454867124,"""map""","""camera_link_refined""",,,4.79924520874,-1.73127054854,0.100816345746,,0.000444544213546,-0.0176203341121,-0.698147835578,0.715736631649
1.60488459252353E+018,,0,,1603863784,537911891,"""map""","""camera_link""",,,4.8014810418,-1.78238325471,0.102745130558,,-0.000922357226825,-0.0166628938372,-0.698192743795,0.715715311176
1.60488459260141E+018,,0,,1604884592,600808143,"""map""","""camera_link_refined""",,,4.79924520874,-1.73127054854,0.100816345746,,0.000444544213546,-0.0176203341121,-0.698147835578,0.715736631649
1.60488459263326E+018,,0,,1603863784,641531944,"""map""","""camera_link""",,,4.80308276976,-1.83122524072,0.10584749339,,-0.00244814014387,-0.015333846439,-0.698737267993,0.715209846998
1.60488459269103E+018,,0,,1604884592,690213203,"""map""","""camera_link_refined""",,,4.80308276976,-1.83122524072,0.10584749339,,-0.00244814012531,-0.0153338463228,-0.698737262696,0.715209841576
1.60488459274617E+018,,0,,1603863784,745291948,"""map""","""camera_link""",,,4.80433523904,-1.88172714188,0.107416597093,,-0.00314066380005,-0.0143697542186,-0.699704797062,0.714280635619
1.60488459284781E+018,,0,,1604884592,836770057,"""map""","""camera_link_refined""",,,4.80433523904,-1.88172714188,0.107416597093,,-0.00314066382665,-0.0143697543403,-0.699704802989,0.71428064167
1.60488459286505E+018,,0,,1603863784,848881959,"""map""","""camera_link""",,,4.80591164537,-1.93379872589,0.109076077602,,-0.0041175886646,-0.0126830842078,-0.701114147076,0.712924349653
1.604884592914E+018,,0,,1604884592,913413286,"""map""","""camera_link_refined""",,,4.80591164537,-1.93379872589,0.109076077602,,-0.0041175886837,-0.0126830842667,-0.701114150329,0.712924352961
1.60488459296159E+018,,0,,1603863784,952631950,"""map""","""camera_link""",,,4.80715304545,-1.98500576178,0.110391567919,,-0.00389849543965,-0.0111467234904,-0.702888554683,0.71120196558
1.60488459303798E+018,,0,,1604884593,30886650,"""map""","""camera_link_refined""",,,4.80715304545,-1.98500576178,0.110391567919,,-0.00389849543213,-0.0111467234689,-0.702888553326,0.711201964207
1.60488459307783E+018,,0,,1603863785,56391954,"""map""","""camera_link""",,,4.80812007191,-2.03543723698,0.112391882194,,-0.00408437107268,-0.00929331387552,-0.705290827716,0.70884541376
1.60488459312669E+018,,0,,1604884593,126265525,"""map""","""camera_link_refined""",,,4.80812007191,-2.03543723698,0.112391882194,,-0.00408437103176,-0.00929331378241,-0.70529082065,0.708845406657
1.6048845931764E+018,,0,,1603863785,160101890,"""map""","""camera_link""",,,4.80751181283,-2.08581781358,0.114141106671,,-0.00413727251786,-0.00924760273565,-0.70757622288,0.706564406201
1.60488459321531E+018,,0,,1604884593,213967561,"""map""","""camera_link_refined""",,,4.80751181283,-2.08581781358,0.114141106671,,0.00413727250446,0.0092476027057,0.707576220589,-0.706564403913
1.60488459324383E+018,,0,,1603863785,263851881,"""map""","""camera_link""",,,4.80543492264,-2.13311827894,0.116508328703,,-0.00399741038632,-0.00996805445872,-0.710391415881,0.703724860405
1.60488459329759E+018,,0,,1604884593,296933650,"""map""","""camera_link_refined""",,,4.80751181283,-2.08581781358,0.114141106671,,0.00413727250446,0.0092476027057,0.707576220589,-0.706564403913
1.60488459336004E+018,,0,,1603863785,367592096,"""map""","""camera_link""",,,4.80394347042,-2.18304295615,0.117562865624,,-0.00429144015758,-0.0101424543386,-0.713856412571,0.70020548462
1.60488459339378E+018,,0,,1604884593,387525558,"""map""","""camera_link_refined""",,,4.80543492264,-2.13311827894,0.116508328703,,0.00399741041768,0.00996805453692,0.710391421454,-0.703724865926
1.60488459348474E+018,,0,,1603863785,471352100,"""map""","""camera_link""",,,4.80206485468,-2.23398959941,0.118854389616,,-0.00350397574196,-0.0103817414439,-0.717507113643,0.696464999537
1.60488459355085E+018,,0,,1604884593,550460338,"""map""","""camera_link_refined""",,,4.80206485468,-2.23398959941,0.118854389616,,0.00350397572074,0.010381741381,0.717507109298,-0.69646499532
1.60488459357764E+018,,0,,1603863785,575072050,"""map""","""camera_link""",,,4.80013282876,-2.28275398616,0.121003342549,,-0.00374551704383,-0.00918142844285,-0.721386275927,0.692461913181
1.60488459363786E+018,,0,,1604884593,637487649,"""map""","""camera_link_refined""",,,4.80013282876,-2.28275398616,0.121003342549,,0.00374551706662,0.00918142849873,0.721386280317,-0.692461917395
1.6048845936914E+018,,0,,1603863785,678682088,"""map""","""camera_link""",,,4.79716069739,-2.33081375432,0.122277271021,,-0.00273492121874,-0.00977107707945,-0.725088273491,0.688581176683
1.60488459375735E+018,,0,,1604884593,756711721,"""map""","""camera_link_refined""",,,4.79716069739,-2.33081375432,0.122277271021,,0.00273492122561,0.00977107710399,0.725088275312,-0.688581178412
1.60488459378228E+018,,0,,1603863785,782422065,"""map""","""camera_link""",,,4.79589243188,-2.38395351296,0.12425182379,,-0.00328557157121,-0.00937830550678,-0.72925606101,0.684168731837
1.60488459381737E+018,,0,,1604884593,816920995,"""map""","""camera_link_refined""",,,4.79589243188,-2.38395351296,0.12425182379,,0.00328557156507,0.00937830548925,0.729256059647,-0.684168730558
1.60488459388907E+018,,0,,1603863785,886041879,"""map""","""camera_link""",,,4.7916987874,-2.43224582185,0.12545097918,,-0.00343863247992,-0.00966250242906,-0.732916195783,0.680241620615
1.60488459394228E+018,,0,,1604884593,931435108,"""map""","""camera_link_refined""",,,4.7916987874,-2.43224582185,0.12545097918,,0.00343863247888,0.00966250242614,0.732916195562,-0.680241620409
1.60488459397429E+018,,0,,1603863785,989661931,"""map""","""camera_link""",,,4.7891954598,-2.48886967558,0.127452478523,,-0.00457169405221,-0.00965513431605,-0.73716289721,0.675630620199
1.60488459406724E+018,,0,,1604884594,66770076,"""map""","""camera_link_refined""",,,4.7891954598,-2.48886967558,0.127452478523,,0.00457169406597,0.00965513434512,0.737162899429,-0.675630622233
1.60488459408072E+018,,0,,1603863786,93401908,"""map""","""camera_link""",,,4.78340473683,-2.5357234496,0.128259054891,,-0.00483917583271,-0.0104565491626,-0.74050457338,0.671952535624
1.60488459412909E+018,,0,,1604884594,128817081,"""map""","""camera_link_refined""",,,4.78340473683,-2.5357234496,0.128259054891,,0.00483917585601,0.0104565492129,0.740504576945,-0.671952538859
1.60488459422292E+018,,0,,1603863786,197021961,"""map""","""camera_link""",,,4.77696317184,-2.58331269877,0.130002722473,,-0.00433620740515,-0.0113941103579,-0.743388654809,0.668748583023
1.6048845942854E+018,,0,,1604884594,284804105,"""map""","""camera_link_refined""",,,4.77696317184,-2.58331269877,0.130002722473,,0.00433620743151,0.0113941104272,0.743388659329,-0.668748587089
1.60488459432249E+018,,0,,1603863786,300751924,"""map""","""camera_link""",,,4.77385652274,-2.6340876115,0.131994433614,,-0.00410606779068,-0.0118381858054,-0.747035172501,0.664666417339
1.60488459437827E+018,,0,,1603863786,404371976,"""map""","""camera_link""",,,4.76732294978,-2.68155224851,0.132706308921,,-0.00476102917442,-0.0119084670402,-0.750039735664,0.661268426011
1.60488459438838E+018,,0,,1604884594,372053861,"""map""","""camera_link_refined""",,,4.77385652274,-2.6340876115,0.131994433614,,0.00410606779535,0.0118381858188,0.74703517335,-0.664666418094
1.60488459444831E+018,,0,,1604884594,447648525,"""map""","""camera_link_refined""",,,4.76732294978,-2.68155224851,0.132706308921,,0.00476102913799,0.0119084669491,0.750039729926,-0.661268420952
1.60488459449155E+018,,0,,1603863786,508131980,"""map""","""camera_link""",,,4.76227730315,-2.72793945774,0.135055783253,,-0.00382512945803,-0.0118170497677,-0.753188323186,0.657687664532
1.60488459452525E+018,,0,,1604884594,524807929,"""map""","""camera_link_refined""",,,4.76227730315,-2.72793945774,0.135055783253,,0.00382512947994,0.0118170498354,0.753188327501,-0.6576876683
1.60488459459621E+018,,0,,1603863786,611772060,"""map""","""camera_link""",,,4.75691725197,-2.77219471811,0.136268837866,,-0.00304622559072,-0.0118683015138,-0.755852376827,0.654627411891
1.60488459462504E+018,,0,,1604884594,624798059,"""map""","""camera_link_refined""",,,4.75691725197,-2.77219471811,0.136268837866,,0.00304622559069,0.0118683015137,0.755852376817,-0.654627411883
1.60488459470497E+018,,0,,1603863786,715461969,"""map""","""camera_link""",,,4.74973494474,-2.81726251724,0.137761248026,,-0.00142161397496,-0.0124677604701,-0.757387516408,0.65284507299
1.60488459475145E+018,,0,,1604884594,750719785,"""map""","""camera_link_refined""",,,4.74973494474,-2.81726251724,0.137761248026,,0.00142161397114,0.0124677604366,0.757387514372,-0.652845071236
1.60488459480676E+018,,0,,1603863786,819082021,"""map""","""camera_link""",,,4.74088548451,-2.86430025026,0.138959364958,,-4.66799159263E-05,-0.0127166634053,-0.758415188296,0.651647658924
1.60488459490979E+018,,0,,1603863786,922692060,"""map""","""camera_link""",,,4.73448202226,-2.90811039409,0.140271803556,,0.00128267297629,-0.0133549550182,-0.759382065452,0.650506619257
1.60488459491101E+018,,0,,1604884594,905112028,"""map""","""camera_link_refined""",,,4.74088548451,-2.86430025026,0.138959364958,,4.66799162781E-05,0.0127166635011,0.758415194012,-0.651647663835
1.60488459497627E+018,,0,,1604884594,975517272,"""map""","""camera_link_refined""",,,4.73448202226,-2.90811039409,0.140271803556,,-0.00128267298713,0.0133549551311,0.759382071869,-0.650506624753
1.60488459504748E+018,,0,,1603863787,26311874,"""map""","""camera_link""",,,4.72734804668,-2.95060924367,0.140872118771,,0.0014111752262,-0.0130797790279,-0.759888137538,0.649920731993
1.60488459508266E+018,,0,,1604884595,82190752,"""map""","""camera_link_refined""",,,4.72734804668,-2.95060924367,0.140872118771,,-0.0014111752181,0.0130797789529,0.759888133176,-0.649920728262
1.60488459513875E+018,,0,,1603863787,129921913,"""map""","""camera_link""",,,4.7208202715,-2.98747272982,0.142915901095,,0.00214814860586,-0.0140347780114,-0.759887058267,0.649900045183
1.60488459516919E+018,,0,,1604884595,168684244,"""map""","""camera_link_refined""",,,4.72734804668,-2.95060924367,0.140872118771,,-0.0014111752181,0.0130797789529,0.759888133176,-0.649920728262
1.60488459523547E+018,,0,,1603863787,233612060,"""map""","""camera_link""",,,4.71537970372,-3.0195889071,0.145507952187,,0.00160703474079,-0.0135018478927,-0.759508876813,0.650354805381
1.60488459527433E+018,,0,,1604884595,263737916,"""map""","""camera_link_refined""",,,4.7208202715,-2.98747272982,0.142915901095,,-0.00214814860631,0.0140347780143,0.759887058424,-0.649900045317
1.60488459532919E+018,,0,,1603863787,337222099,"""map""","""camera_link""",,,4.70943007623,-3.06072617796,0.145771389404,,0.00176718084392,-0.0153069615668,-0.758670739741,0.651292024477
1.60488459537637E+018,,0,,1604884595,362137079,"""map""","""camera_link_refined""",,,4.70943007623,-3.06072617796,0.145771389404,,-0.00176718082758,0.0153069614253,0.758670732728,-0.651292018457
1.6048845954257E+018,,0,,1603863787,440881967,"""map""","""camera_link""",,,4.70357639608,-3.10344401158,0.146117764114,,0.00152197313147,-0.0159121806787,-0.756996875519,0.653222950636
1.60488459545854E+018,,0,,1604884595,458128213,"""map""","""camera_link_refined""",,,4.70357639608,-3.10344401158,0.146117764114,,-0.00152197312638,0.0159121806255,0.756996872991,-0.653222948454
1.60488459552902E+018,,0,,1603863787,544441938,"""map""","""camera_link""",,,4.6985050177,-3.13918586762,0.148214096356,,0.000948551394989,-0.0157455080447,-0.754278831622,0.656364709048
1.60488459558486E+018,,0,,1604884595,584181547,"""map""","""camera_link_refined""",,,4.70357639608,-3.10344401158,0.146117764114,,-0.00152197312638,0.0159121806255,0.756996872991,-0.653222948454
1.60488459563099E+018,,0,,1603863787,648001909,"""map""","""camera_link""",,,4.6944941319,-3.17439732403,0.149897010521,,0.000792011465132,-0.0155578862368,-0.750536766092,0.660645035929
1.60488459567075E+018,,0,,1604884595,670088052,"""map""","""camera_link_refined""",,,4.6944941319,-3.17439732403,0.149897010521,,-0.000792011474692,0.0155578864246,0.750536775151,-0.660645043903
1.60488459573678E+018,,0,,1603863787,751611948,"""map""","""camera_link""",,,4.69149695362,-3.20855632496,0.151083037282,,0.000474065334815,-0.0156432453278,-0.746031903123,0.665726268815
1.60488459580057E+018,,0,,1604884595,799962997,"""map""","""camera_link_refined""",,,4.6944941319,-3.17439732403,0.149897010521,,-0.000792011474692,0.0155578864246,0.750536775151,-0.660645043903
1.6048845958342E+018,,0,,1603863787,855112075,"""map""","""camera_link""",,,4.6894903494,-3.2400523878,0.152391984371,,-5.3985395485E-05,-0.0162569988166,-0.740285079129,0.672096515334
1.60488459593149E+018,,0,,1604884595,928618192,"""map""","""camera_link_refined""",,,4.6894903494,-3.2400523878,0.152391984371,,5.39853950199E-05,0.0162569986766,0.740285072751,-0.672096509544
1.60488459594774E+018,,0,,1603863787,958721876,"""map""","""camera_link""",,,4.68784030133,-3.27304131854,0.153870749775,,-0.00167422621753,-0.016360561577,-0.733034585626,0.679992510059
1.60488459604693E+018,,0,,1604884596,39922952,"""map""","""camera_link_refined""",,,4.68784030133,-3.27304131854,0.153870749775,,0.00167422622718,0.0163605616713,0.733034589852,-0.67999251398
1.6048845960516E+018,,0,,1603863788,62222003,"""map""","""camera_link""",,,4.6874595032,-3.30547968606,0.155620304774,,-0.003605594022,-0.0164127875182,-0.72468528389,0.688875054633
1.6048845961235E+018,,0,,1604884596,98033189,"""map""","""camera_link_refined""",,,4.6874595032,-3.30547968606,0.155620304774,,0.00360559405538,0.0164127876702,0.724685290599,-0.68887506101
1.60488459615909E+018,,0,,1603863788,165702104,"""map""","""camera_link""",,,4.68776230853,-3.33600122205,0.156924625227,,-0.00462701138552,-0.0168735009751,-0.714807665373,0.699102202551
1.60488459623193E+018,,0,,1604884596,231509923,"""map""","""camera_link_refined""",,,4.68776230853,-3.33600122205,0.156924625227,,0.00462701135694,0.0168735008709,0.714807660957,-0.699102198232
1.60488459626424E+018,,0,,1603863788,269341945,"""map""","""camera_link""",,,4.68886503206,-3.37065511192,0.15833971061,,-0.00512167470633,-0.0161717715449,-0.702982741134,0.711004571711
1.60488459630382E+018,,0,,1604884596,302961826,"""map""","""camera_link_refined""",,,4.68886503206,-3.37065511192,0.15833971061,,-0.00512167472407,-0.0161717716009,-0.702982743569,0.711004574174
1.60488459636387E+018,,0,,1603863788,372812032,"""map""","""camera_link""",,,4.69053772801,-3.40074452289,0.160536055132,,-0.0045795146718,-0.0148818672205,-0.689042202232,0.724553931241
1.60488459641141E+018,,0,,1604884596,411041736,"""map""","""camera_link_refined""",,,4.69053772801,-3.40074452289,0.160536055132,,-0.00457951467716,-0.0148818672379,-0.689042203038,0.724553932089
1.60488459646697E+018,,0,,1603863788,476301908,"""map""","""camera_link""",,,4.6940545755,-3.43084248441,0.161541934139,,-0.00393979113527,-0.0131851611818,-0.673334775193,0.739209644709
1.60488459650534E+018,,0,,1604884596,504871129,"""map""","""camera_link_refined""",,,4.69053772801,-3.40074452289,0.160536055132,,-0.00457951467716,-0.0148818672379,-0.689042203038,0.724553932089
1.60488459656887E+018,,0,,1603863788,579672098,"""map""","""camera_link""",,,4.70033040169,-3.46171966078,0.163300018203,,-0.00316871364288,-0.0103955085704,-0.656562024914,0.754193747754
1.60488459661816E+018,,0,,1604884596,613883018,"""map""","""camera_link_refined""",,,4.70033040169,-3.46171966078,0.163300018203,,-0.00316871362853,-0.0103955085233,-0.656562021942,0.754193744339
1.60488459669557E+018,,0,,1603863788,683161973,"""map""","""camera_link""",,,4.70812571681,-3.49248192451,0.163988964223,,-0.00360032945384,-0.00762944143467,-0.637742167959,0.770203715317
1.60488459675834E+018,,0,,1604884596,750933647,"""map""","""camera_link_refined""",,,4.70812571681,-3.49248192451,0.163988964223,,-0.00360032944191,-0.00762944140938,-0.637742165845,0.770203712764
1.60488459678869E+018,,0,,1603863788,786642074,"""map""","""camera_link""",,,4.71648513435,-3.52081468419,0.164672102379,,-0.00394717629264,-0.00641644993658,-0.61678182528,0.787098105944
1.60488459683481E+018,,0,,1604884596,834350585,"""map""","""camera_link_refined""",,,4.70812571681,-3.49248192451,0.163988964223,,-0.00360032944191,-0.00762944140938,-0.637742165845,0.770203712764
1.604884596884E+018,,0,,1603863788,890161991,"""map""","""camera_link""",,,4.72709926905,-3.54995338911,0.164868181737,,-0.00412222450555,-0.00657445220594,-0.593804101712,0.804572226777
1.60488459691464E+018,,0,,1604884596,914164066,"""map""","""camera_link_refined""",,,4.72709926905,-3.54995338911,0.164868181737,,-0.00412222451489,-0.00657445222084,-0.593804103058,0.8045722286
1.60488459699996E+018,,0,,1603863788,993711948,"""map""","""camera_link""",,,4.73755333852,-3.58010521329,0.166411274308,,-0.00341694847467,-0.00788108915952,-0.568167616025,0.822868013251
1.60488459707232E+018,,0,,1604884597,71928262,"""map""","""camera_link_refined""",,,4.73755333852,-3.58010521329,0.166411274308,,-0.00341694848452,-0.00788108918223,-0.568167617663,0.822868015623
1.60488459707371E+018,,0,,1603863789,97222089,"""map""","""camera_link""",,,4.75179414895,-3.6060808594,0.167676386613,,-0.00442966260162,-0.00964470849217,-0.540910715502,0.84101305889
1.6048845971144E+018,,0,,1604884597,114114046,"""map""","""camera_link_refined""",,,4.75179414895,-3.6060808594,0.167676386613,,-0.00442966258018,-0.00964470844549,-0.540910712883,0.841013054819
1.60488459718188E+018,,0,,1603863789,200572013,"""map""","""camera_link""",,,4.7685330755,-3.63504045829,0.167449862049,,-0.00546445078737,-0.0136048578906,-0.512574465022,0.858517587527
1.60488459724863E+018,,0,,1604884597,228460550,"""map""","""camera_link_refined""",,,4.75179414895,-3.6060808594,0.167676386613,,-0.00442966258018,-0.00964470844549,-0.540910712883,0.841013054819
1.60488459728666E+018,,0,,1603863789,304101943,"""map""","""camera_link""",,,4.78519307437,-3.65860683,0.168845626844,,-0.00725186266256,-0.0141890458671,-0.482222231379,0.875903982432
1.60488459737146E+018,,0,,1604884597,367542743,"""map""","""camera_link_refined""",,,4.78519307437,-3.65860683,0.168845626844,,-0.00725186271546,-0.0141890459706,-0.482222234896,0.875903988822
1.60488459737914E+018,,0,,1603863789,407641887,"""map""","""camera_link""",,,4.80458456339,-3.68071992367,0.16988274185,,-0.00890561087835,-0.0146875706526,-0.451489704364,0.892110981975
1.604884597424E+018,,0,,1604884597,423139572,"""map""","""camera_link_refined""",,,4.80458456339,-3.68071992367,0.16988274185,,-0.00890561091423,-0.0146875707117,-0.451489706182,0.892110985569
1.60488459750048E+018,,0,,1603863789,511202096,"""map""","""camera_link""",,,4.82388155047,-3.70035157616,0.171250980105,,-0.00970710439895,-0.0151591588479,-0.420769126045,0.906989141468
1.60488459760269E+018,,0,,1604884597,588071823,"""map""","""camera_link_refined""",,,4.80458456339,-3.68071992367,0.16988274185,,-0.00890561091423,-0.0146875707117,-0.451489706182,0.892110985569
1.60488459760948E+018,,0,,1603863789,614922046,"""map""","""camera_link""",,,4.84760892095,-3.71886346606,0.170690024609,,-0.0102082228412,-0.0158705637023,-0.390842278508,0.92026421885
1.60488459766346E+018,,0,,1604884597,662995338,"""map""","""camera_link_refined""",,,4.84760892095,-3.71886346606,0.170690024609,,-0.0102082228322,-0.0158705636882,-0.390842278162,0.920264218035
1.60488459770917E+018,,0,,1603863789,718561887,"""map""","""camera_link""",,,4.87105534771,-3.73452798697,0.173771429699,,-0.00801976630534,-0.0121638245368,-0.360624056581,0.932597454721
1.60488459774573E+018,,0,,1604884597,745108842,"""map""","""camera_link_refined""",,,4.87105534771,-3.73452798697,0.173771429699,,-0.00801976631329,-0.0121638245489,-0.360624056939,0.932597455646
1.6048845978441E+018,,0,,1603863789,822302103,"""map""","""camera_link""",,,4.89552192611,-3.75298750838,0.173432239979,,-0.00744515415786,-0.00983538410568,-0.327561312157,0.944749396464
1.60488459790549E+018,,0,,1604884597,905126810,"""map""","""camera_link_refined""",,,4.89552192611,-3.75298750838,0.173432239979,,-0.00744515415621,-0.00983538410351,-0.327561312084,0.944749396255
1.60488459793351E+018,,0,,1603863789,926151990,"""map""","""camera_link""",,,4.92198305439,-3.7687046134,0.171647218113,,-0.00871504399486,-0.00808656703438,-0.296042575304,0.955100755482
1.60488459798407E+018,,0,,1604884597,983713865,"""map""","""camera_link_refined""",,,4.92198305439,-3.7687046134,0.171647218113,,-0.00871504397712,-0.00808656701791,-0.296042574701,0.955100753537
1.60488459801393E+018,,0,,1603863790,29911994,"""map""","""camera_link""",,,4.94991808549,-3.78178436921,0.174863594076,,-0.0055110062572,-0.00371727054016,-0.267701903629,0.963478852708
1.60488459806333E+018,,0,,1604884598,57146549,"""map""","""camera_link_refined""",,,4.94991808549,-3.78178436921,0.174863594076,,-0.00551100626241,-0.00371727054367,-0.267701903882,0.963478853617
1.60488459811516E+018,,0,,1603863790,133641958,"""map""","""camera_link""",,,4.97807415473,-3.79315255998,0.176181277434,,-0.0063897487758,-0.000348581446655,-0.240540607862,0.970617985206
1.60488459819167E+018,,0,,1604884598,186297178,"""map""","""camera_link_refined""",,,4.94991808549,-3.78178436921,0.174863594076,,-0.00551100626241,-0.00371727054367,-0.267701903882,0.963478853617
1.60488459820692E+018,,0,,1603863790,237511873,"""map""","""camera_link""",,,5.00818128368,-3.80449608804,0.177201081244,,-0.00795357699099,0.00196772650359,-0.216295072143,0.976293656537
1.60488459828352E+018,,0,,1604884598,282583236,"""map""","""camera_link_refined""",,,5.00818128368,-3.80449608804,0.177201081244,,-0.00795357701739,0.00196772651012,-0.216295072861,0.976293659777
1.60488459832743E+018,,0,,1603863790,341372013,"""map""","""camera_link""",,,5.03894332572,-3.81531654068,0.176847916219,,-0.0118880191173,0.00339572547292,-0.194860827057,0.980752972142
1.60488459835181E+018,,0,,1604884598,345741987,"""map""","""camera_link_refined""",,,5.03894332572,-3.81531654068,0.176847916219,,-0.0118880191753,0.00339572548949,-0.194860828009,0.98075297693
1.60488459841736E+018,,0,,1603863790,445372104,"""map""","""camera_link""",,,5.06660489271,-3.82269985859,0.17763348717,,-0.0131126309155,0.00347665316539,-0.176733724309,0.984165207139
1.60488459849754E+018,,0,,1604884598,490634679,"""map""","""camera_link_refined""",,,5.06660489271,-3.82269985859,0.17763348717,,-0.0131126309649,0.0034766531785,-0.176733724975,0.98416521085
1.60488459852131E+018,,0,,1603863790,549361944,"""map""","""camera_link""",,,5.09558755727,-3.8295572622,0.178280926353,,-0.013893742782,0.00381143748476,-0.161731249019,0.986729666679
1.60488459859213E+018,,0,,1604884598,591733694,"""map""","""camera_link_refined""",,,5.06660489271,-3.82269985859,0.17763348717,,-0.0131126309649,0.0034766531785,-0.176733724975,0.98416521085
1.60488459862228E+018,,0,,1603863790,653491973,"""map""","""camera_link""",,,5.1278617187,-3.84134251122,0.177712338935,,-0.0107522215707,0.00280741819899,-0.149437756598,0.988708682602
1.60488459867239E+018,,0,,1604884598,671477794,"""map""","""camera_link_refined""",,,5.09558755727,-3.8295572622,0.178280926353,,-0.0138937428156,0.00381143749399,-0.161731249411,0.986729669068
1.60488459873785E+018,,0,,1603863790,757711887,"""map""","""camera_link""",,,5.15854171507,-3.85003874539,0.177803846124,,-0.00831128085841,0.0026352540034,-0.141892554652,0.989843663891
1.60488459880111E+018,,0,,1604884598,800525665,"""map""","""camera_link_refined""",,,5.15854171507,-3.85003874539,0.177803846124,,-0.00831128086687,0.00263525400608,-0.141892554796,0.989843664899
1.60488459883709E+018,,0,,1603863790,861841917,"""map""","""camera_link""",,,5.19264558307,-3.85817843476,0.17821169116,,-0.0110989695608,0.00261823392103,-0.135477539161,0.990714789933
1.60488459887013E+018,,0,,1604884598,869915246,"""map""","""camera_link_refined""",,,5.19264558307,-3.85817843476,0.17821169116,,-0.0110989695559,0.00261823391987,-0.135477539101,0.990714789495
1.60488459894721E+018,,0,,1603863790,965862035,"""map""","""camera_link""",,,5.22475143166,-3.8640982746,0.17879457137,,-0.013472447095,0.00366567072291,-0.131550434913,0.991211147966
1.60488459899667E+018,,0,,1604884598,996057748,"""map""","""camera_link_refined""",,,5.19264558307,-3.85817843476,0.17821169116,,-0.0110989695559,0.00261823391987,-0.135477539101,0.990714789495
1.60488459905114E+018,,0,,1603863791,69812059,"""map""","""camera_link""",,,5.26198360765,-3.8767082618,0.177720792781,,-0.0173330395296,0.00295355728605,-0.126247767383,0.991842900906
1.60488459916254E+018,,0,,1603863791,173922061,"""map""","""camera_link""",,,5.29225511727,-3.88230424545,0.178702740176,,-0.0201250864574,0.00186947256326,-0.124933038537,0.991959282768
1.60488459916415E+018,,0,,1604884599,163124322,"""map""","""camera_link_refined""",,,5.26198360765,-3.8767082618,0.177720792781,,-0.017333039559,0.00295355729106,-0.126247767597,0.991842902589
1.60488459919173E+018,,0,,1604884599,191339492,"""map""","""camera_link_refined""",,,5.29225511727,-3.88230424545,0.178702740176,,-0.0201250864894,0.00186947256624,-0.124933038735,0.991959284345
1.60488459927093E+018,,0,,1603863791,277911901,"""map""","""camera_link""",,,5.32454493899,-3.88886709865,0.17915589774,,-0.0208150986169,0.000644559915077,-0.125206647875,0.991912097706
1.60488459931228E+018,,0,,1604884599,311411380,"""map""","""camera_link_refined""",,,5.32454493899,-3.88886709865,0.17915589774,,-0.0208150986373,0.000644559915711,-0.125206647998,0.99191209868
